City_ID,City,Lat,Lng,Max Temp,Humidity,Cloudiness,Wind Speed,Country,Date
0,roma,43.2128,-75.4557,33.37,97,100,5.75,US,1738644755
1,castillos,-34.1667,-53.8333,72.01,91,3,7.94,UY,1738644756
2,dahlonega,34.5326,-83.9849,49.93,82,0,3.74,US,1738644481
3,harper,4.375,-7.7169,77.18,87,95,2.48,LR,1738644758
4,la passe,45.5549,-0.8967,40.3,77,0,4.81,FR,1738644760
5,dickinson,29.4608,-95.0513,72.05,90,100,10.36,US,1738644761
6,port-aux-francais,-49.35,70.2167,40.87,81,99,22.57,TF,1738644762
7,bethel,41.3712,-73.414,42.62,86,99,7.0,US,1738644720
8,grytviken,-54.2811,-36.5092,42.08,85,69,25.05,GS,1738644764
9,port macquarie,-31.4333,152.9167,80.08,77,100,7.0,AU,1738644765
10,aasiaat,68.7098,-52.8699,-6.65,93,100,12.77,GL,1738644766
11,albany,42.6001,-73.9662,36.66,89,100,1.01,US,1738644667
12,ayorou,14.7308,0.9174,68.59,17,38,9.89,NE,1738644768
13,puerto ayora,-0.7393,-90.3518,75.54,94,33,4.25,EC,1738644769
14,fort bragg,35.139,-79.006,51.82,88,0,1.01,US,1738644771
15,port mathurin,-19.6833,63.4167,81.25,82,19,11.95,MU,1738644772
16,malanje,-9.5402,16.341,65.1,96,100,1.03,AO,1738644773
17,hawaiian paradise park,19.5933,-154.9731,72.91,77,20,6.91,US,1738644774
18,chonchi,-42.6128,-73.8092,52.12,98,77,0.6,CL,1738644776
19,port elizabeth,-33.918,25.5701,69.31,88,0,1.01,ZA,1738644777
20,stung treng,13.5259,105.9683,90.61,33,10,6.26,KH,1738644778
21,senanga,-16.1167,23.2667,69.22,94,98,2.04,ZM,1738644781
22,georgetown,5.4112,100.3354,89.53,52,20,8.05,MY,1738644610
23,intendente alvear,-35.2338,-63.592,65.35,88,7,6.17,AR,1738644783
24,taghazout,30.5426,-9.7112,53.58,75,0,2.75,MA,1738644784
25,talnakh,69.4865,88.3972,-6.12,99,100,5.44,RU,1738644785
26,tralee,52.2704,-9.7026,48.87,90,100,11.54,IE,1738644786
27,kirensk,57.7853,108.1119,-4.9,96,100,16.78,RU,1738644787
28,adamstown,-25.066,-130.1015,77.0,77,18,15.73,PN,1738644788
29,la'ie,21.6477,-157.9253,74.59,71,0,4.0,US,1738644790
30,suva,-18.1416,178.4415,80.08,94,75,5.75,FJ,1738644565
31,kirkwall,58.9848,-2.9587,48.96,87,20,11.5,GB,1738644792
32,huntington,38.4193,-82.4452,62.38,55,60,4.0,US,1738644712
33,cabo san lucas,22.8909,-109.9124,65.01,45,4,6.6,MX,1738644584
34,anadyr,64.75,177.4833,5.5,84,100,15.66,RU,1738644795
35,remire-montjoly,4.9167,-52.2667,75.24,100,75,1.14,GF,1738644796
36,kingston,17.997,-76.7936,77.95,78,20,3.44,JM,1738644797
37,les sables-d'olonne,46.6667,-1.8333,41.63,89,0,8.43,FR,1738644799
38,waitangi,-43.9535,-176.5597,55.81,90,91,5.99,NZ,1738644800
39,vinh,18.6667,105.6667,59.76,62,100,6.55,VN,1738644801
40,kotlas,61.2611,46.6556,19.15,98,100,0.87,RU,1738644802
41,falam,22.9167,93.6833,77.97,19,35,1.7,MM,1738644803
42,hermanus,-34.4187,19.2345,65.75,70,0,4.47,ZA,1738644556
43,nemuro,43.3236,145.575,32.97,98,100,49.73,JP,1738644805
44,blackmans bay,-43.0167,147.3167,64.53,87,76,17.63,AU,1738644806
45,vila velha,-20.3297,-40.2925,78.75,83,20,4.61,BR,1738644807
46,port augusta,-32.5,137.7667,91.08,39,1,23.67,AU,1738644810
47,ushuaia,-54.8,-68.3,40.66,81,0,14.97,AR,1738644677
48,laurel,39.0993,-76.8483,51.94,80,97,4.0,US,1738644587
49,filadelfia,39.9523,-75.1638,46.38,86,0,4.61,US,1738644555
50,stanley,54.868,-1.6985,48.22,79,75,10.36,GB,1738644814
51,invercargill,-46.4,168.35,64.02,62,39,8.99,NZ,1738644815
52,hancheng,32.5186,112.3522,50.43,40,0,5.08,CN,1738644816
53,san pedro pochutla,15.7333,-96.4667,76.71,83,1,3.44,MX,1738644817
54,golhisar,37.1459,29.5088,38.16,76,5,1.14,TR,1738644819
55,gemena,3.25,19.7667,68.72,57,86,2.04,CD,1738644820
56,antalaha,-14.9003,50.2788,77.47,86,100,2.93,MG,1738644821
57,bontang,0.1333,117.5,85.23,65,93,2.24,ID,1738644822
58,gereida,11.2811,25.1414,65.08,27,7,10.69,SD,1738644823
59,olonkinbyen,70.9221,-8.7187,29.46,87,98,46.95,SJ,1738644824
60,princeville,45.7668,-61.2985,33.69,97,100,5.75,CA,1738644825
61,khandyga,62.6667,135.6,-23.82,92,100,4.23,RU,1738644826
62,puerto natales,-51.7236,-72.4875,39.74,85,79,6.35,CL,1738644827
63,udachny,66.4167,112.4,-22.38,91,90,30.85,RU,1738644828
64,howrah,22.5892,88.3103,77.0,41,0,4.61,IN,1738644830
65,sheridan,44.8333,-106.9173,4.01,80,0,8.01,US,1738644831
66,kailua-kona,19.6406,-155.9956,74.55,83,2,1.01,US,1738644832
67,janeng,-25.4167,25.55,68.59,74,74,12.17,BW,1738644833
68,st. john's,47.5649,-52.7093,26.15,87,75,13.8,CA,1738644834
69,atafu village,-8.5421,-172.5159,83.35,70,66,14.27,TK,1738644835
70,mogocha,53.7333,119.7667,-0.29,63,20,3.91,RU,1738644836
71,punta arenas,-53.15,-70.9167,44.71,70,75,12.66,CL,1738644837
72,lewiston orchards,46.3804,-116.9754,36.12,84,100,4.61,US,1738644838
73,isafjordur,66.0755,-23.124,29.43,68,50,23.26,IS,1738644840
74,tasqala,51.1167,50.3167,23.86,98,97,10.38,KZ,1738644841
75,thompson,55.7435,-97.8558,-11.04,70,20,10.36,CA,1738644842
76,as sulayyil,20.4607,45.5779,55.08,27,35,6.33,SA,1738644843
77,vorgashor,67.5833,63.95,-15.18,97,33,4.07,RU,1738644844
78,motygino,58.1831,94.7592,-11.49,95,100,4.79,RU,1738644845
79,lompoc,34.6391,-120.4579,52.21,75,0,5.75,US,1738644846
80,hakui,36.8833,136.7833,34.25,92,100,10.38,JP,1738644847
81,puerto carreno,6.189,-67.4859,82.38,61,0,7.47,CO,1738644849
82,malango,-2.9627,119.9001,87.49,41,100,5.08,ID,1738644850
83,nizhneudinsk,54.9076,99.0276,12.33,70,64,10.18,RU,1738644851
84,ilhabela,-23.7781,-45.3581,75.92,87,100,3.76,BR,1738644852
85,san patricio,28.017,-97.5169,69.75,93,0,8.77,US,1738644853
86,bredasdorp,-34.5322,20.0403,64.33,75,0,2.24,ZA,1738644854
87,baise city,23.8997,106.6133,64.56,35,20,3.36,CN,1738644855
88,dinguiraye,11.3,-10.7167,68.22,19,99,2.46,GN,1738644856
89,iskateley,67.6803,53.1512,-1.37,91,87,11.18,RU,1738644858
90,hithadhoo,-0.6,73.0833,82.4,66,100,6.67,MV,1738644859
91,vilyuchinsk,52.9306,158.4028,21.47,73,92,2.95,RU,1738644860
92,broome,42.2506,-75.833,37.71,89,100,16.11,US,1738644861
93,horta,38.5333,-28.6333,57.02,71,100,8.99,PT,1738644862
94,thunder bay,48.4001,-89.3168,3.18,55,100,14.97,CA,1738644776
95,papatowai,-46.5619,169.4708,56.98,67,21,6.38,NZ,1738644864
96,kayenta,36.7278,-110.2546,51.69,33,100,8.79,US,1738644866
97,butajira,8.1167,38.3667,57.33,65,93,8.55,ET,1738644868
98,nhamunda,-2.1861,-56.7131,76.48,86,84,1.48,BR,1738644869
99,yellowknife,62.456,-114.3525,-26.45,75,0,5.75,CA,1738644870
100,naze,28.3667,129.4833,49.12,65,98,23.8,JP,1738644871
101,mazagao,-0.115,-51.2894,73.9,98,100,3.89,BR,1738644872
102,semnan,35.5729,53.3971,39.76,43,17,1.3,IR,1738644873
103,ancud,-41.8697,-73.8203,52.84,90,67,4.07,CL,1738644874
104,qaqortoq,60.7167,-46.0333,-10.64,80,31,7.4,GL,1738644875
105,dudinka,69.4058,86.1778,-6.59,90,100,6.15,RU,1738644877
106,ban dan lan hoi,17.0068,99.575,88.2,35,63,14.38,TH,1738644878
107,la ronge,55.1001,-105.2842,-12.75,77,0,8.05,CA,1738644879
108,igarka,67.4667,86.5833,-3.55,85,100,11.27,RU,1738644880
109,porto velho,-8.7619,-63.9039,75.25,94,0,0.0,BR,1738644851
110,longyearbyen,78.2186,15.6401,26.44,68,0,28.77,SJ,1738644721
111,sweet home,44.3976,-122.7362,35.94,95,100,1.99,US,1738644883
112,nova sintra,14.8667,-24.7167,70.88,64,98,22.41,CV,1738644884
113,blankenberge,51.3131,3.1323,37.35,84,98,1.01,BE,1738644886
114,mount gambier,-37.8333,140.7667,67.93,63,100,13.56,AU,1738644887
115,ilulissat,69.2167,-51.1,3.22,78,100,18.41,GL,1738644888
116,manadhoo,5.7667,73.3833,81.79,71,50,7.25,MV,1738644889
117,chernyshevskiy,63.0128,112.4714,-9.09,81,72,16.8,RU,1738644890
118,mangai,-4.05,19.5333,71.67,94,100,2.59,CD,1738644891
119,utrik,11.2278,169.8474,79.95,77,8,18.72,MH,1738644892
120,bel ombre,-4.6167,55.4167,82.24,89,20,9.22,SC,1738644895
121,holualoa,19.6228,-155.9522,70.83,81,18,2.77,US,1738644896
122,west island,-12.1568,96.8225,87.78,79,20,13.8,CC,1738644897
123,nguigmi,14.2495,13.1092,64.98,17,85,11.97,NE,1738644898
124,pokrovsk,48.282,37.1758,28.87,75,100,8.88,UA,1738644899
125,mukalla,14.5425,49.1242,70.47,21,3,5.68,YE,1738644900
126,edinburgh of the seven seas,-37.0676,-12.3116,57.63,71,12,13.15,SH,1738644901
127,namtsy,62.7161,129.6658,-20.34,94,100,12.3,RU,1738644902
128,djenne,13.9061,-4.5533,68.18,18,99,8.77,ML,1738644903
129,yuzhno-kurilsk,44.0306,145.8556,30.43,97,100,40.53,RU,1738644905
130,saipan,15.1355,145.701,88.5,62,20,14.97,MP,1738644906
131,tiksi,71.6872,128.8694,-25.71,100,94,6.67,RU,1738644907
132,ust-nera,64.5667,143.2,-35.27,96,93,2.17,RU,1738644908
133,mulki,13.1,74.8,83.48,61,83,4.61,IN,1738644909
134,san jorge,-31.8962,-61.8598,80.37,24,4,5.82,AR,1738644910
135,san antonio de pale,-1.4014,5.6325,81.05,78,60,10.74,GQ,1738644911
136,weno,7.4515,151.8468,76.95,94,100,8.05,FM,1738644912
137,essaouira,31.5125,-9.77,54.9,71,20,8.05,MA,1738644914
138,wailua homesteads,22.0669,-159.378,66.13,89,54,10.69,US,1738644915
139,puerto aysen,-45.4,-72.7,42.01,98,36,3.13,CL,1738644878
140,cockburn town,21.4612,-71.1419,77.02,70,30,19.35,TC,1738644917
141,hasaki,35.7333,140.8333,44.96,45,98,1.95,JP,1738644918
142,changping,40.2186,116.2197,29.01,19,83,6.76,CN,1738644919
143,laguna,38.421,-121.4238,56.21,85,100,9.22,US,1738644920
144,jamestown,42.097,-79.2353,33.03,98,100,9.22,US,1738644331
145,jianshui,23.6363,102.8264,58.93,53,40,4.54,CN,1738644924
146,pangody,65.85,74.4859,-10.26,98,92,7.2,RU,1738644925
147,katabu,-4.9333,122.5167,89.29,55,71,7.65,ID,1738644926
148,grandview,38.8858,-94.533,37.9,84,100,16.11,US,1738644927
149,kaedi,16.1465,-13.5047,63.72,14,86,10.69,MR,1738644928
150,greymouth,-42.4667,171.2,67.39,68,0,6.55,NZ,1738644929
151,flin flon,54.7682,-101.865,-13.45,93,57,8.12,CA,1738644930
152,walvis bay,-22.9575,14.5053,65.05,85,71,2.62,NA,1738644931
153,enewetak,11.3474,162.3373,80.29,68,38,17.54,MH,1738644933
154,bilibino,68.0546,166.4372,-28.77,99,100,3.94,RU,1738644934
155,tazovsky,67.4667,78.7,-25.62,100,97,2.15,RU,1738644935
156,portland,45.5234,-122.6762,37.47,91,75,4.61,US,1738644790
157,tete,-16.1564,33.5867,74.01,94,100,5.12,MZ,1738644938
158,kodiak,57.79,-152.4072,29.71,80,0,3.44,US,1738644939
159,arraial do cabo,-22.9661,-42.0278,75.54,89,97,20.02,BR,1738644940
160,talakan,50.3167,130.3667,2.53,82,99,4.81,RU,1738644941
161,puerto baquerizo moreno,-0.9,-89.6,75.56,87,24,4.68,EC,1738644943
162,donauworth,48.7,10.8,28.62,95,4,2.53,DE,1738644944
163,alofi,-19.0595,-169.9187,80.49,89,100,10.36,NU,1738644945
164,usinsk,65.9939,57.5281,-4.27,80,97,7.58,RU,1738644762
165,pisco,-13.7,-76.2167,71.65,83,0,5.75,PE,1738644775
166,samana,19.2056,-69.3369,73.17,81,80,7.87,DO,1738644948
167,duong dong,10.2167,103.9667,86.0,62,20,10.36,VN,1738644949
168,usogorsk,63.4106,48.6872,17.49,95,100,7.31,RU,1738644950
169,kayyerkan,69.3786,87.7439,-7.55,98,100,5.7,RU,1738644951
170,san sebastian de la gomera,28.0916,-17.1133,62.96,67,0,1.14,ES,1738644953
171,auki,-8.7676,160.7034,81.46,84,100,3.98,SB,1738644954
172,dunedin,-45.8742,170.5036,58.44,66,2,5.59,NZ,1738644955
173,hauterive,46.0901,3.4459,30.76,86,9,2.86,FR,1738644956
174,nouadhibou,20.931,-17.0347,61.68,78,0,22.48,MR,1738644957
175,mpika,-11.8343,31.4529,63.99,95,100,2.39,ZM,1738644958
176,pattani,6.75,100.4167,85.71,50,22,9.13,TH,1738644959
177,constantia,44.1833,28.65,27.7,69,0,10.51,RO,1738644845
178,chita,52.0333,113.55,-4.11,50,40,11.18,RU,1738644961
179,lebu,-37.6167,-73.65,53.42,82,3,8.23,CL,1738644963
180,amga,60.8953,131.9608,-13.02,92,100,7.2,RU,1738644964
181,margaret river,-33.95,115.0667,81.07,42,0,9.69,AU,1738644966
182,ishigaki,24.3448,124.1572,60.93,51,20,17.27,JP,1738644967
183,irymple,-34.25,142.1667,104.09,24,2,3.0,AU,1738644968
184,miranda,3.2499,-76.2281,68.4,91,100,2.24,CO,1738644969
185,nova vicosa,-17.8919,-39.3719,75.74,91,1,6.89,BR,1738644970
186,inhambane,-23.865,35.3833,82.08,68,81,7.7,MZ,1738644971
187,nizhnyaya poyma,56.1622,97.1933,-1.28,91,91,9.55,RU,1738644973
188,itoman,26.1247,127.6694,56.17,54,75,26.46,JP,1738644974
189,vila franca do campo,37.7167,-25.4333,57.61,87,100,9.48,PT,1738644975
190,new norfolk,-42.7826,147.0587,69.3,79,94,3.65,AU,1738644976
191,kokrajhar,26.399,90.2718,76.24,38,43,4.83,IN,1738644977
192,shache,38.4167,77.2406,32.23,24,1,2.93,CN,1738644978
193,hami,42.8,93.45,26.2,39,0,3.78,CN,1738644979
194,fortuna,40.5982,-124.1573,41.34,96,100,8.05,US,1738644980
195,kayangel,8.0823,134.7173,81.61,82,100,13.96,PW,1738644982
196,lamu,-2.2717,40.902,76.57,82,92,13.11,KE,1738644683
197,wotho,10.1657,166.0102,80.08,70,31,19.15,MH,1738644984
198,barcelos,41.5388,-8.6151,43.43,77,75,4.25,PT,1738644985
199,lorengau,-2.0226,147.2712,86.95,61,76,3.71,PG,1738644986
200,al ghayzah,16.2079,52.176,65.71,22,0,5.17,YE,1738644987
201,minas de marcona,-15.2119,-75.1103,64.11,81,75,5.7,PE,1738644988
202,kish,26.5578,54.0194,62.87,59,0,4.61,IR,1738644989
203,choma,-16.8065,26.9531,65.61,94,55,6.44,ZM,1738644991
204,bokoro,12.3807,17.0568,66.07,15,1,10.0,TD,1738644992
205,khovd,48.0056,91.6419,6.3,59,39,0.47,MN,1738644993
206,kalmunai,7.4167,81.8167,81.01,69,98,9.86,LK,1738644994
207,pandan,14.0453,124.1694,82.4,65,80,7.23,PH,1738644995
208,kununurra,-15.7667,128.7333,96.78,46,74,10.36,AU,1738644996
209,toropets,56.4978,31.6353,20.17,93,92,3.02,RU,1738644997
210,iqaluit,63.7506,-68.5145,-24.07,62,40,0.0,CA,1738644999
211,akonolinga,3.7667,12.25,63.32,94,88,2.13,CM,1738645000
212,barmer,25.75,71.3833,69.12,15,0,6.55,IN,1738645001
213,santana,-0.0583,-51.1817,77.18,94,75,4.61,BR,1738645002
214,sitangkai,4.6628,119.3928,80.38,82,97,9.44,PH,1738644866
215,rupea,46.0333,25.2167,25.88,76,5,1.74,RO,1738645004
216,lata,40.1629,-8.3327,39.22,82,32,3.71,PT,1738645005
217,taulaga,-11.0553,-171.0883,82.9,72,45,8.39,AS,1738645006
218,ad dilam,23.9915,47.1627,55.9,20,3,7.18,SA,1738645008
219,bridgewater,44.3835,-64.5155,35.28,91,100,13.8,CA,1738645009
220,chulakkurgan,43.765,69.1814,22.21,71,100,5.99,KZ,1738645010
221,lihue,21.9789,-159.3672,66.74,90,47,10.65,US,1738645011
222,kone,-21.0595,164.8658,82.22,77,93,1.81,NC,1738645012
223,altus,34.6381,-99.334,58.86,54,0,21.85,US,1738645013
224,aykhal,66.0,111.5,-20.63,94,65,27.4,RU,1738644865
225,sirjan,29.452,55.6814,40.23,25,58,6.71,IR,1738644866
226,katsuren-haebaru,26.3369,127.8719,56.17,52,100,19.57,JP,1738645016
227,harnai,30.1005,67.9374,54.09,22,0,1.59,PK,1738645018
228,shimoda,34.6667,138.95,44.49,54,0,28.54,JP,1738644984
229,waupaca,44.358,-89.086,28.27,59,75,6.91,US,1738645020
230,verkhniy ufaley,56.0567,60.2306,18.41,99,100,3.71,RU,1738645021
231,ampanihy,-24.7,44.75,76.06,73,100,14.61,MG,1738645022
232,port alfred,-33.5906,26.891,67.17,99,0,7.23,ZA,1738645023
233,petropavlovsk-kamchatsky,53.0452,158.6483,19.99,42,75,4.47,RU,1738645024
234,college,64.8569,-147.8028,-4.92,81,40,0.0,US,1738645025
235,coyhaique,-45.5752,-72.0662,38.05,99,65,4.38,CL,1738644793
236,guozhen,34.3659,107.359,41.97,39,0,7.18,CN,1738645028
237,bulata,9.8599,122.4016,83.89,68,54,15.95,PH,1738645029
238,buritizeiro,-17.3511,-44.9622,69.08,92,99,2.3,BR,1738645031
239,rio grande,-32.035,-52.0986,75.56,90,3,13.51,BR,1738644967
240,itaituba,-4.2761,-55.9836,72.97,100,100,1.83,BR,1738645033
241,beyneu,45.3167,55.2,32.0,71,100,11.95,KZ,1738644785
242,nar'yan-mar,67.6713,53.087,-1.44,91,88,11.12,RU,1738645035
243,san juan de miraflores,-12.1629,-76.9635,75.16,80,88,7.4,PE,1738645037
244,madera,37.1666,-119.8343,57.0,63,100,7.7,US,1738645038
245,rongelap,11.1635,166.8941,79.75,71,34,17.96,MH,1738645040
246,haiku-pauwela,20.9219,-156.3051,71.62,76,0,8.05,US,1738645041
247,selfoss,63.9331,-20.9971,33.04,59,100,24.94,IS,1738645042
248,penzance,50.1186,-5.5371,50.76,82,99,28.86,GB,1738645035
249,qaisumah,28.3112,46.1273,51.76,37,40,8.05,SA,1738644920
250,pemangkat,1.1667,108.9667,78.98,85,99,13.58,ID,1738644817
251,luderitz,-26.6481,15.1594,63.23,84,34,7.63,NA,1738645049
252,cestos city,5.46,-9.5828,76.14,91,92,4.21,LR,1738645050
253,rieti,42.4072,12.8592,43.43,59,89,9.22,IT,1738645051
254,whitehorse,60.7161,-135.0538,7.57,85,100,3.44,CA,1738645053
255,dolinsk,47.35,142.8,25.2,92,100,17.36,RU,1738645054
256,spinea-orgnano,45.4931,12.1606,38.17,78,0,8.05,IT,1738645055
257,yaya,56.206,86.44,15.73,91,63,2.8,RU,1738645056
258,freetown,8.484,-13.2299,75.29,71,95,2.26,SL,1738645057
259,egilsstadir,65.2653,-14.3948,33.71,60,0,10.36,IS,1738645059
260,kokopo,-4.352,152.2633,85.39,68,96,3.85,PG,1738645060
261,novodvinsk,64.4165,40.8122,-4.25,96,100,3.91,RU,1738645062
262,nuuk,64.1835,-51.7216,11.01,56,20,9.22,GL,1738645063
263,kavaratti,10.5669,72.642,81.95,67,100,7.83,IN,1738645064
264,labytnangi,66.6572,66.4183,-18.13,99,86,3.78,RU,1738645065
265,sitka,57.0531,-135.33,35.49,30,0,11.5,US,1738645066
266,port lincoln,-34.7333,135.8667,71.37,62,20,21.99,AU,1738645067
267,cooma,-36.2333,149.1333,93.87,13,2,12.12,AU,1738645068
268,andovoranto,-18.95,49.1,76.05,77,100,17.18,MG,1738645070
269,alakurtti,66.9672,30.3491,-18.2,100,16,3.62,RU,1738645071
270,badger,64.8,-147.5333,-5.01,83,40,0.0,US,1738645072
271,ugoofaaru,5.6667,73.0,81.79,71,56,6.87,MV,1738645073
272,lincheng,19.9078,109.6858,61.59,69,100,15.73,CN,1738645074
273,avarua,-21.2078,-159.775,84.25,79,86,12.66,CK,1738645075
274,songea,-10.6833,35.65,66.94,95,100,1.79,TZ,1738645076
275,jagtial,18.8,78.9333,88.29,24,77,3.91,IN,1738644886
276,kourou,5.1552,-52.6478,74.34,94,100,6.42,GF,1738645078
277,kavieng,-2.5744,150.7967,86.56,62,75,11.25,PG,1738645080
278,crane,31.3974,-102.3501,64.29,33,44,8.59,US,1738645081
279,bubaque,11.2833,-15.8333,74.68,50,16,18.57,GW,1738645082
280,antsiranana,-12.2787,49.2917,79.32,83,100,11.68,MG,1738645083
281,baymak,52.5933,58.3225,15.76,98,100,4.23,RU,1738645085
282,turinskaya sloboda,57.6232,64.3858,25.66,97,99,6.29,RU,1738645086
283,saint-philippe,-21.3585,55.7679,84.25,76,53,8.52,RE,1738645088
284,nogliki,51.8333,143.1667,8.33,91,100,11.3,RU,1738645089
285,santa elena de uairen,4.6167,-61.1333,67.08,78,92,4.72,VE,1738645090
286,alice springs,-23.7,133.8833,99.95,20,0,19.57,AU,1738645091
287,ghat,24.9647,10.1728,51.62,43,83,4.72,LY,1738645092
288,cabrobo,-8.5142,-39.31,75.25,69,4,14.5,BR,1738645093
289,ljusdal,61.8288,16.0913,21.29,96,100,5.44,SE,1738645003
290,valle de la pascua,9.2155,-66.0073,75.51,76,40,8.48,VE,1738645096
291,pathein,16.7833,94.7333,90.14,28,9,6.22,MM,1738645097
292,coronel marcelino mariduena,-2.2,-79.4167,74.77,93,99,2.01,EC,1738645098
293,chui,-33.6971,-53.4616,72.61,93,3,8.55,UY,1738644985
294,nakhon si thammarat,8.25,100.0,82.09,66,100,8.84,TH,1738645100
295,les avirons,-21.2418,55.3394,86.38,70,20,3.44,RE,1738645102
296,serowe,-22.3833,26.7167,69.76,70,2,10.2,BW,1738645104
297,mildura,-34.2,142.15,104.07,24,5,8.32,AU,1738645105
298,najran,17.4924,44.1277,53.47,30,8,1.03,SA,1738645106
299,dubbo,-32.25,148.6167,93.33,29,40,11.5,AU,1738645107
300,blantyre,-15.785,35.0085,68.4,97,99,3.67,MW,1738645108
301,sovetskaya gavan',48.9723,140.2878,9.79,94,100,15.39,RU,1738645109
302,kudahuvadhoo,2.6708,72.8944,81.68,75,42,9.91,MV,1738645110
303,kodinsk,58.6881,99.1844,1.11,95,100,12.39,RU,1738645111
304,chongjin,41.7956,129.7758,16.72,37,27,8.95,KP,1738645113
305,quartu sant'elena,39.2419,9.1839,46.99,93,20,8.05,IT,1738645114
306,xinxiang,35.3089,113.8672,46.24,18,38,3.0,CN,1738645115
307,sisimiut,66.9395,-53.6735,-3.82,97,100,6.96,GL,1738645116
308,taber,49.8167,-112.1518,-6.81,80,100,8.03,CA,1738645117
309,seydi,39.4816,62.9137,39.22,47,78,5.32,TM,1738645118
310,mushie,-3.0167,16.9,72.79,93,100,4.47,CD,1738645119
311,cidade velha,14.9167,-23.6167,66.67,63,20,16.11,CV,1738645120
312,alotau,-10.3069,150.4462,87.98,67,100,5.26,PG,1738645122
313,jinka,5.65,36.65,71.15,42,97,3.51,ET,1738645123
314,rikaze,29.25,88.8833,47.86,9,37,1.39,CN,1738645124
315,sultanah,24.4926,39.5857,55.85,33,0,2.3,SA,1738645125
316,abadan,30.3392,48.3043,44.55,57,31,0.0,IR,1738645116
317,keelung,25.1283,121.7419,60.69,45,100,15.39,TW,1738645127
318,sinabang,2.4803,96.3801,86.63,64,34,5.1,ID,1738645128
319,belmonte,-15.8631,-38.8828,76.17,88,19,5.08,BR,1738645129
320,mishkino,55.3389,63.9175,13.87,94,100,6.24,RU,1738645131
321,kamaishi,39.2667,141.8833,34.7,54,9,18.63,JP,1738645132
322,santa ana,33.7456,-117.8678,58.84,85,40,1.99,US,1738644942
323,afaahiti,-17.75,-149.2833,79.56,74,18,9.62,PF,1738645134
324,boca do acre,-8.7522,-67.3978,71.87,99,71,2.42,BR,1738645135
325,igrim,63.1906,64.4162,-10.62,99,96,4.36,RU,1738645136
326,qamdo,31.1667,97.2333,47.7,12,0,1.03,CN,1738645137
327,puerto deseado,-47.7503,-65.8938,53.69,70,42,18.28,AR,1738645139
328,niquelandia,-14.4739,-48.4597,66.67,95,99,1.54,BR,1738645140
329,afif,23.9065,42.9172,54.23,29,34,8.57,SA,1738645141
330,jolo,6.05,121.0167,83.43,77,99,1.23,PH,1738645142
331,barhi,23.9,80.8,82.42,28,72,3.69,IN,1738644849
332,greenville,35.6127,-77.3663,53.15,90,0,6.91,US,1738644858
333,ukmerge,55.25,24.75,28.08,93,100,5.99,LT,1738645148
334,plettenberg bay,-34.0527,23.3716,68.56,68,0,3.56,ZA,1738645150
335,vilyuysk,63.7553,121.6247,-3.68,94,100,10.54,RU,1738645151
336,tabuk,17.4189,121.4443,67.3,94,100,9.86,PH,1738645152
337,bardai,11.65,7.2333,64.0,15,1,9.64,NG,1738645153
338,fale old settlement,-9.3852,-171.2468,83.62,67,52,13.51,TK,1738645155
339,al jahra',29.3375,47.6581,58.98,25,67,4.14,KW,1738645156
340,manturovo,58.3353,44.7619,18.41,99,100,2.84,RU,1738645157
341,north bend,43.4065,-124.2243,37.31,93,100,5.75,US,1738645158
342,goundam,16.4145,-3.6708,65.05,14,81,7.16,ML,1738645159
343,bonthe,7.5264,-12.505,74.57,88,83,5.01,SL,1738645160
344,mossel bay,-34.1831,22.146,69.44,73,0,0.69,ZA,1738645161
345,papao,-17.75,-149.55,83.88,69,12,8.46,PF,1738645162
346,wladyslawowo,54.7909,18.4009,34.93,83,98,7.99,PL,1738645052
347,bamboo flat,11.7,92.7167,86.09,58,40,4.61,IN,1738645166
348,riyadh,24.6877,46.7219,55.29,22,12,5.84,SA,1738645003
349,corner brook,48.9667,-57.9484,24.24,96,100,7.36,CA,1738645025
350,rehoboth,-23.3167,17.0833,75.04,56,94,4.18,NA,1738644919
351,turpan,42.9333,89.1667,36.52,31,0,2.1,CN,1738645170
352,namdrik,5.5994,168.1028,81.23,81,58,24.36,MH,1738645172
353,shakawe,-18.3667,21.85,69.98,86,27,3.65,BW,1738645173
354,gering,41.8258,-103.6605,12.33,73,100,10.36,US,1738645174
355,luwuk,-0.9516,122.7875,82.58,70,100,3.49,ID,1738645175
356,napier,-39.4833,176.9167,66.27,73,14,5.99,NZ,1738645176
357,kazlu ruda,54.7667,23.5,28.99,77,96,6.98,LT,1738645177
358,ribeira grande,38.5167,-28.7,57.78,71,100,11.99,PT,1738645178
359,sorsk,54.0033,90.2467,12.69,86,29,1.01,RU,1738644881
360,linxia chengguanzhen,35.6003,103.2064,17.15,75,28,3.4,CN,1738645181
361,karagandy,49.8019,73.1021,10.35,83,14,11.81,KZ,1738645182
362,vadso,70.0744,29.7487,10.56,79,40,11.5,NO,1738645183
363,shingu,33.7333,135.9833,41.29,45,41,16.17,JP,1738645184
364,praia da vitoria,38.7333,-27.0667,57.45,67,75,11.68,PT,1738645185
365,opuwo,-18.0607,13.84,70.21,68,99,0.67,NA,1738645186
366,mananara,-16.1667,49.7667,74.59,96,100,7.27,MG,1738645187
367,prince rupert,54.3161,-130.3201,26.29,46,0,18.41,CA,1738645188
368,tazacorte,28.629,-17.9293,61.77,63,100,11.5,ES,1738645190
369,kapsan-up,41.0903,128.2933,-3.1,70,100,9.04,KP,1738645191
370,villa ojo de agua,-29.5,-63.6938,77.25,43,0,8.79,AR,1738645192
371,gadzhiyevo,69.2551,33.3362,8.58,99,100,8.37,RU,1738645193
372,karratha,-20.7377,116.8463,93.6,52,71,15.39,AU,1738645194
373,gamay,12.3854,125.2979,83.97,58,100,6.71,PH,1738645195
374,bodaybo,57.8506,114.1933,-0.09,88,100,15.21,RU,1738645196
375,opochka,56.7105,28.6617,20.43,93,93,3.44,RU,1738645197
376,quellon,-43.1167,-73.6167,51.39,93,97,2.77,CL,1738645198
377,callao,-12.0667,-77.15,76.71,88,20,11.5,PE,1738645015
378,rawson,-43.3002,-65.1023,55.69,71,0,8.05,AR,1738645201
379,onega,63.9061,38.1404,-1.05,97,96,1.74,RU,1738645202
380,laramie,41.3114,-105.5911,46.56,46,100,14.54,US,1738645204
381,vorkuta,67.5,64.0,-17.81,100,53,3.02,RU,1738645207
382,kidal,18.4411,1.4078,67.26,16,93,8.14,ML,1738645208
383,saint-pierre,-21.3393,55.4781,87.48,70,20,3.44,RE,1738645209
384,beacon square,28.2086,-82.7554,65.19,94,100,3.0,US,1738645210
385,shaping,22.7545,112.9565,60.85,34,68,9.84,CN,1738645212
386,chibougamau,49.9168,-74.3659,10.02,85,100,8.05,CA,1738645213
387,piti village,13.4626,144.6933,85.08,80,75,17.27,GU,1738645214
388,coquimbo,-29.9533,-71.3436,87.53,94,0,2.3,CL,1738644929
389,muravlenko,63.7898,74.523,-4.4,99,67,8.43,RU,1738645216
390,bedford,52.1346,-0.4663,44.31,95,17,13.67,GB,1738645217
391,kapuskasing,49.4169,-82.4331,8.6,72,100,13.8,CA,1738645021
392,mikuni,36.2171,136.1519,34.09,96,100,10.71,JP,1738645219
393,flying fish cove,-10.4217,105.6791,80.28,94,100,17.27,CX,1738645221
394,nishinoomote,30.7333,131.0,37.96,93,75,18.41,JP,1738645222
395,acarau,-2.8856,-40.12,78.51,79,82,9.42,BR,1738645223
396,moramanga,-18.9333,48.2,65.1,70,100,6.78,MG,1738645224
397,don carlos,7.68,125.005,76.33,78,94,6.44,PH,1738645225
398,east london,-33.0153,27.9116,72.7,78,2,9.95,ZA,1738645227
399,vernon,50.2581,-119.2691,10.76,72,100,1.99,CA,1738645154
400,raduzhny,62.0961,77.475,-1.05,97,28,6.38,RU,1738645229
401,grootfontein,-19.5667,18.1167,69.17,67,76,2.89,NA,1738645230
402,naeso,35.2497,128.52,27.84,29,0,16.11,KR,1738645231
403,bijie,27.3125,105.2942,38.75,86,99,5.32,CN,1738645056
404,maralal,1.0968,36.698,62.02,57,65,6.85,KE,1738645234
405,tomatlan,19.9333,-105.25,69.69,36,0,3.65,MX,1738645235
406,magadan,59.5667,150.8,-9.2,78,20,2.55,RU,1738645236
407,bahia de caraquez,-0.6,-80.4167,77.5,82,55,4.27,EC,1738644979
408,christchurch,-43.5333,172.6333,67.32,66,100,9.22,NZ,1738645239
409,tura,25.5198,90.2201,77.14,34,32,4.07,IN,1738645240
410,westport,41.1415,-73.3579,41.83,88,100,1.01,US,1738645241
411,tolanaro,-25.0319,46.9987,80.67,69,40,11.5,MG,1738645243
412,polyarnyy,69.1989,33.4478,7.36,99,100,9.28,RU,1738645244
413,vallenar,-28.5708,-70.7581,65.59,64,5,1.7,CL,1738645245
414,belozersk,60.0326,37.7957,13.28,93,99,2.95,RU,1738645246
415,kingscliff,-28.2667,153.5667,80.94,74,75,14.97,AU,1738645247
416,tome acu,-2.4189,-48.1522,72.21,99,100,2.95,BR,1738645248
417,ad dabbah,18.05,30.95,68.04,37,1,6.89,SD,1738645249
418,foligno,42.944,12.7011,40.37,71,91,6.33,IT,1738645251
419,saudarkrokur,65.7461,-19.6394,29.44,88,40,16.89,IS,1738645038
420,hilo,19.7297,-155.09,69.94,88,54,4.0,US,1738645152
421,molchanovo,57.5817,83.7692,10.31,95,79,5.57,RU,1738645254
422,al jawf,29.5,38.75,53.11,18,20,2.21,SA,1738645255
423,batesville,35.7698,-91.641,61.95,79,0,3.69,US,1738645224
424,san luis de la loma,17.2706,-100.8939,74.79,82,0,3.78,MX,1738645257
425,susuman,62.7833,148.1667,-38.02,95,41,1.23,RU,1738645258
426,kpandu,6.9954,0.2931,78.24,76,12,2.15,GH,1738645260
427,lobujya,27.95,86.8167,28.56,45,3,6.44,NP,1738645261
428,verdal,63.7933,11.4817,18.99,91,100,7.02,NO,1738645262
429,mbanza kongo,-6.267,14.2401,69.51,99,99,1.45,AO,1738645263
430,saldanha,-33.0117,17.9442,64.71,90,0,11.36,ZA,1738645264
431,ingeniero jacobacci,-41.3427,-69.5448,52.45,46,0,7.25,AR,1738645265
432,labrador city,52.9463,-66.9114,-9.49,77,0,0.0,CA,1738645216
433,mersing,2.4312,103.8405,84.11,79,40,6.91,MY,1738645267
434,mount isa,-20.7333,139.5,91.17,49,40,9.22,AU,1738645269
435,lubao,14.9167,120.55,87.51,72,73,10.11,PH,1738645270
436,fonte boa,-2.4959,-66.2662,73.94,89,100,1.39,BR,1738645272
437,dauphin,51.1494,-100.0502,-9.26,64,0,11.5,CA,1738645273
438,kerikeri,-35.2268,173.9474,71.58,66,17,5.82,NZ,1738645276
439,kill devil hills,36.0307,-75.676,48.97,91,0,9.22,US,1738645277
440,benguela,-12.5763,13.4055,77.14,82,100,2.95,AO,1738645278
441,tondano,1.3038,124.9112,80.69,79,85,4.5,ID,1738645281
442,zlatoust,55.1711,59.6508,12.43,99,100,3.0,RU,1738645283
443,lucelia,-21.7203,-51.0189,70.61,95,100,10.65,BR,1738645284
444,namyang,42.95,129.8667,10.33,45,64,15.79,KP,1738645286
445,canton,23.1167,113.25,61.97,30,64,6.89,CN,1738645287
446,chu,43.5983,73.7614,20.48,70,18,7.49,KZ,1738645289
447,kawambwa,-9.7915,29.0791,63.07,99,100,3.04,ZM,1738645291
448,pasinler,39.9803,41.6764,1.6,89,39,2.57,TR,1738645293
449,pechora,65.1472,57.2244,-0.27,82,100,7.31,RU,1738645294
450,guerrero negro,27.9769,-114.0611,60.42,83,99,6.82,MX,1738645295
451,acajutla,13.5928,-89.8275,78.24,62,1,7.87,SV,1738645296
452,maputo,-25.9653,32.5892,76.01,91,67,3.65,MZ,1738645297
453,tanumah,27.1,44.1333,52.52,26,43,8.46,SA,1738645298
454,cefalu,38.0386,14.0229,49.75,84,9,3.0,IT,1738645300
455,tongliao,43.6125,122.2653,9.37,48,25,9.48,CN,1738645301
456,nizamabad,18.6667,78.1167,87.33,23,94,3.89,IN,1738645302
457,champerico,14.3,-91.9167,79.5,71,6,4.9,GT,1738645303
458,tucumcari,35.1717,-103.725,53.44,30,0,9.22,US,1738645305
459,laojunmiao,39.8333,97.7333,15.28,67,5,6.2,CN,1738645306
460,ar ruways,24.1103,52.7306,64.49,48,2,7.45,AE,1738645308
461,weligama,5.9667,80.4167,84.9,64,61,3.38,LK,1738645309
462,hamilton,39.1834,-84.5333,61.63,70,95,1.99,US,1738645292
463,xilin hot,43.9667,116.0333,4.14,66,84,11.97,CN,1738645312
464,sao jose da coroa grande,-8.8978,-35.1478,78.84,81,17,12.64,BR,1738645313
465,ifakara,-8.1333,36.6833,73.45,95,100,0.56,TZ,1738645315
466,pointe-du-lac,46.2869,-72.6845,24.76,84,100,6.91,CA,1738645316
467,ushirombo,-3.4919,31.9639,65.17,94,98,1.3,TZ,1738645317
468,axim,4.8699,-2.2405,79.11,85,11,0.54,GH,1738645318
469,old town,50.087,14.4202,25.32,90,0,8.05,CZ,1738645189
470,lukolela,-1.0605,17.1821,74.86,76,100,2.42,CD,1738645320
471,bengkulu,-3.8004,102.2655,80.38,80,100,7.02,ID,1738645321
472,estrela,-28.0611,-50.9383,62.64,98,4,3.24,BR,1738645323
473,piton saint-leu,-21.2196,55.3151,86.4,70,20,3.44,RE,1738645324
474,colonia,50.9333,6.95,32.97,90,100,9.22,DE,1738645325
475,eyl,7.9803,49.8164,72.9,63,38,22.84,SO,1738645326
476,pangkalanbuun,-2.6833,111.6167,94.17,43,94,5.21,ID,1738645327
477,demidov,55.2706,31.515,23.59,88,59,3.06,RU,1738645328
478,pacasmayo,-7.4006,-79.5714,72.64,76,50,9.8,PE,1738645329
479,mirnyy,62.5353,113.9611,-6.81,86,97,16.58,RU,1738645331
480,ta`u,-14.2336,-169.5144,82.89,70,33,3.65,AS,1738645332
481,si sa ket,14.8333,104.3333,83.46,41,38,6.89,TH,1738645333
482,mitu,1.1983,-70.1733,72.88,86,35,2.51,CO,1738645334
483,ruteng,-8.6136,120.4721,74.08,75,100,1.07,ID,1738645335
484,port moresby,-9.4431,147.1797,87.22,70,75,11.5,PG,1738645037
485,zhangye,38.9342,100.4517,23.07,37,0,4.63,CN,1738645337
486,waingapu,-9.6567,120.2641,82.92,82,100,7.11,ID,1738645338
487,hadibu,12.65,54.0333,72.43,56,60,17.6,YE,1738645339
488,porto novo,6.4965,2.6036,80.42,84,35,3.65,BJ,1738645341
489,nanzhou,29.3596,112.4024,54.12,34,0,4.56,CN,1738645342
490,sambava,-14.2667,50.1667,77.72,85,100,2.8,MG,1738645343
491,prado,-17.3411,-39.2208,76.78,91,0,8.14,BR,1738645099
492,qalat,32.1058,66.9083,37.33,61,6,2.73,AF,1738645345
493,huarmey,-10.0681,-78.1522,71.91,85,99,6.35,PE,1738645347
494,soio,-6.1349,12.3689,80.17,81,100,5.46,AO,1738645349
495,mount pearl,47.5166,-52.7813,27.14,90,75,13.8,CA,1738645350
496,phek,25.6667,94.5,70.41,31,10,1.16,IN,1738645351
497,sanya,18.2431,109.505,71.76,56,75,11.18,CN,1738645352
498,anna regina,7.2644,-58.5077,75.58,89,99,8.43,GY,1738645353
499,brisas de zicatela,15.8369,-97.0419,76.6,78,3,5.93,MX,1738645354
500,peace river,56.2501,-117.286,-27.09,75,0,5.75,CA,1738645222
501,azemmour,33.2895,-8.3425,49.78,75,57,3.83,MA,1738645359
502,margate,51.3813,1.3862,43.7,93,9,14.07,GB,1738645360
503,klyuchi,52.2667,79.1667,26.6,93,100,3.24,RU,1738645361
504,coruripe,-10.1256,-36.1756,77.63,81,5,11.32,BR,1738645276
505,musoma,-1.5,33.8,71.46,72,97,4.88,TZ,1738645363
506,rawai,7.7797,98.3253,86.99,68,37,12.48,TH,1738645364
507,geraldton,-28.7667,114.6,97.21,28,0,21.85,AU,1738645366
508,sao joao da barra,-21.6403,-41.0511,76.48,90,100,16.75,BR,1738645367
509,gamboma,-1.8764,15.8644,75.02,81,100,3.78,CG,1738645368
510,la sarre,48.8002,-79.1996,6.58,91,100,9.55,CA,1738645369
511,celestun,20.8667,-90.4,74.59,83,98,8.25,MX,1738645370
512,konarka,19.9,86.1167,81.73,67,23,2.84,IN,1738645371
513,santa cruz,-17.8,-63.1667,74.66,94,54,9.22,BO,1738645081
514,nova xavantina,-14.6667,-52.35,69.91,99,100,3.04,BR,1738645251
515,gokwe,-18.2048,28.9349,65.89,77,31,5.26,ZW,1738645376
516,gondar,12.6,37.4667,60.55,51,19,5.66,ET,1738645377
517,camacupa,-12.0167,17.4833,62.28,97,100,1.12,AO,1738645378
518,port douglas,-16.4833,145.4667,80.55,82,100,3.51,AU,1738645379
519,gadsden,34.0143,-86.0066,46.42,93,0,0.0,US,1738645380
520,chipata,-13.6333,32.65,66.58,97,100,4.14,ZM,1738645323
521,awjilah,29.1081,21.2869,53.26,92,63,9.91,LY,1738645382
522,zelenoborskiy,66.845,32.3622,-15.29,99,22,3.8,RU,1738645383
523,kranuan,16.7067,103.0788,80.76,36,23,10.11,TH,1738645385
524,coaraci,-14.6408,-39.5511,72.59,94,80,1.19,BR,1738645286
525,kyzyl-suu,42.3414,78.0056,27.23,64,100,3.04,KG,1738645387
526,saint-francois,46.4154,3.9054,31.68,94,100,2.3,FR,1738645388
527,libreville,0.3925,9.4537,82.42,83,40,6.91,GA,1738645235
528,constitucion,-35.3333,-72.4167,58.51,60,0,8.93,CL,1738645212
529,nyagan,62.1406,65.3936,-7.31,100,100,2.33,RU,1738645391
530,zeya,53.75,127.2667,-2.96,70,95,1.05,RU,1738645392
531,carnarvon,-24.8667,113.6333,91.76,46,3,14.63,AU,1738645393
532,sansanne-mango,10.3592,0.4708,73.63,22,7,6.15,TG,1738645395
533,akureyri,65.6835,-18.0878,35.53,69,75,14.97,IS,1738645396
534,sao paulo de olivenca,-3.3783,-68.8725,72.48,98,100,0.78,BR,1738645397
535,smithers,54.7804,-127.1743,-3.68,77,20,0.0,CA,1738645398
536,tsiombe,-25.3,45.4833,78.62,66,97,13.33,MG,1738645399
537,barclayville,4.6797,-8.2339,74.14,93,95,3.56,LR,1738645400
538,touros,-5.1989,-35.4608,78.1,81,93,10.04,BR,1738645401
539,aranda de duero,41.6704,-3.6892,34.66,79,0,1.28,ES,1738645402
540,enshi,30.3,109.4833,52.09,65,16,2.93,CN,1738645403
541,sur,22.5667,59.5289,70.68,53,0,11.59,OM,1738645405
542,esperanza,19.5847,-70.9849,67.3,96,26,6.53,DO,1738645406
543,paita,-5.0892,-81.1144,73.04,76,88,8.75,PE,1738645236
544,alto araguaia,-17.3147,-53.2153,67.66,98,100,7.67,BR,1738645293
545,felege neway,6.3,36.8833,70.27,49,94,1.41,ET,1738645409
546,santo antonio,-6.3106,-35.4789,75.09,85,78,8.05,BR,1738645411
547,sarangani,5.4033,125.4636,80.24,80,100,14.65,PH,1738645412
548,chul'man,56.8479,124.9104,-14.75,93,94,2.1,RU,1738645415
549,ke-macina,13.9623,-5.3572,67.64,19,98,8.84,ML,1738645416
550,batticaloa,7.7102,81.6924,80.67,68,100,9.4,LK,1738645417
551,bima,-8.4667,118.7167,84.97,77,100,4.47,ID,1738645418
552,vicuna mackenna,-33.9197,-64.3922,66.07,81,2,5.59,AR,1738645419
553,dzuunmod,48.2199,97.3744,-2.99,82,100,3.51,MN,1738645420
554,huatabampo,26.8333,-109.6333,62.64,37,78,2.89,MX,1738645421
555,kruisfontein,-34.0033,24.7314,68.85,60,0,1.23,ZA,1738645381
556,hammerfest,70.6634,23.6821,14.45,41,0,11.5,NO,1738645424
